{
  "school": [
    {
      "id": 1,
      "name": "Средняя школа №20",
      "address": "ул. Ленина, 10",
      "lat": 58.586389,
      "lng": 49.675928
    },
    {
      "id": 2,
      "name": "Средняя школа №16",
      "address": "ул. Мира, 25",
      "lat": 58.59364,
      "lng": 49.675955
    },
    {
      "id": 3,
      "name": "Частная школа \"Среда\"",
      "address": "ул. Гагарина, 15",
      "lat": 58.589419,
      "lng": 49.68315
    },
    {
      "id": 4,
      "name": "Вятская гуманитарная гимназия",
      "address": "ул. Советская, 8",
      "lat": 58.590418,
      "lng": 49.683797
    }
  ],
  "shop": [
    {
      "id": 5,
      "name": "Супермаркет \"Магнит\"",
      "address": "ул. Кирова, 12",
      "lat": 58.587759,
      "lng": 49.683519
    },
    {
      "id": 6,
      "name": "Супермаркет \"Система Глобус\"",
      "address": "пр. Победы, 45",
      "lat": 58.592843,
      "lng": 49.682297
    },
    {
      "id": 7,
      "name": "Продуктовый магазин \"Красное&Белое\"",
      "address": "ул. Ленина, 50",
      "lat": 58.588331,
      "lng": 49.688738
    },
    {
      "id": 8,
      "name": "Магазин у дома \"Бристоль\"",
      "address": "ул. Октябрьская, 3",
      "lat": 58.589063,
      "lng": 49.685746
    }
  ],
  "medical": [
    {
      "id": 9,
      "name": "Поликлиника №6",
      "address": "ул. Комсомольская, 22",
      "lat": 58.590695,
      "lng": 49.675218
    },
    {
      "id": 10,
      "name": "Аптека \"Планета здоровья\"",
      "address": "ул. Свободы, 7",
      "lat": 58.592843,
      "lng": 49.682297
    }
  ],
  "sport": [
    {
      "id": 11,
      "name": "Студии мягкого фитнеса \"Softfitness\"",
      "address": "ул. Спортивная, 5",
      "lat": 58.592843,
      "lng": 49.682297
    },
    {
      "id": 12,
      "name": "Спортивный клуб \"Гагарин\"",
      "address": "ул. Гагарина, 30",
      "lat": 58.59485,
      "lng": 49.68863
    },
    {
      "id": 13,
      "name": "Спортивные секции \"Центр самбо\"",
      "address": "ул. Победы, 8",
      "lat": 58.590437,
      "lng": 49.685549
    },
    {
      "id": 14,
      "name": "Клуб экстремальных видов спорта \"В движении\"",
      "address": "ул. Молодежная, 12",
      "lat": 58.591422,
      "lng": 49.688828
    }
  ],
  "transport": [],
  "park": [
    {
      "id": 16,
      "name": "Городской парк",
      "address": "ул. Парковая",
      "lat": 58.5885,
      "lng": 49.68
    }
  ],
  "food": [
    {
      "id": 17,
      "name": "Кафе \"Уют\"",
      "address": "ул. Ленина, 45",
      "lat": 58.5895,
      "lng": 49.6865
    }
  ]
}
